[
    {
        "mapKey": "hyoigwoa69",
        "id": 11,
        "name": "건대 HOOP 드림",
        "address1": "서울 광진구 동일로20길",
        "address2": "45 (자양동)",
        "city": "광진구",
        "zip": "05072",
        "country": "한국",
        "phone": "02-499-3672",
        "longitude": 127.0663869,
        "latitude": 37.5408532,
        "state": "서울",
        "isShowMap": true,
        "isFulfill": true,
        "available": true,
        "isDefault": false,
        "isReturnDefault": false,
        "isReservationOnly": false,
        "priority": 2000200,
        "fulfillmentType": "PHYSICAL_PICKUP_OR_SHIP",
        "additionalAttributes": {
            "영업시간": "월-일 : 10: 30 ~ 21: 30",
            "주요카테고리": "농구, 조던, 나이키 스포츠웨어, 남성 트레이닝",
            "storeType": "assist",
            "지번": "서울 광진구 자양동 8-9번지 가동",
            "OWNER": "17"
        },
        "holidayClosedDates": [],
        "customTaxonomy": "NSP_KU",
        "customTaxonomyValue": "파트너(KU)",
        "pickupOrderType": "BOTH"
    },
    {
        "mapKey": "hyoigwoa69",
        "id": 13,
        "name": "연신내점",
        "address1": "서울 은평구 통일로",
        "address2": "826 (불광동)",
        "city": "은평구",
        "zip": "03350",
        "country": "한국",
        "phone": "02-383-6158",
        "longitude": 126.923,
        "latitude": 37.617424,
        "state": "서울",
        "isShowMap": true,
        "isFulfill": true,
        "available": true,
        "isDefault": false,
        "isReturnDefault": false,
        "isReservationOnly": false,
        "priority": 2002500,
        "fulfillmentType": "PHYSICAL_PICKUP",
        "additionalAttributes": {
            "영업시간": "월~일 : 10: 30 ~ 21: 30",
            "지번": "서울 은평구 불광동 304-5번지",
            "OWNER": "11",
            "storeType": "assist"
        },
        "holidayClosedDates": [],
        "customTaxonomy": "NSP_DAESAN",
        "customTaxonomyValue": "파트너(대산)",
        "pickupOrderType": "BOTH"
    },
    {
        "mapKey": "hyoigwoa69",
        "id": 17,
        "name": "경기 북부천점",
        "address1": "경기도 부천시 원미구 부천로",
        "address2": "23-1 (심곡동)",
        "city": "부천시",
        "zip": "14634",
        "country": "한국",
        "phone": "032-653-2094",
        "longitude": 126.7828994,
        "latitude": 37.4865193,
        "state": "경기",
        "isShowMap": true,
        "isFulfill": true,
        "available": true,
        "isDefault": false,
        "isReturnDefault": false,
        "isReservationOnly": false,
        "priority": 2003800,
        "fulfillmentType": "PHYSICAL_PICKUP",
        "additionalAttributes": {
            "영업시간": "월~일 : 11: 00 ~ 22: 00",
            "지번": "경기도 부천시 심곡동 177-14 ",
            "OWNER": "4",
            "storeType": "assist"
        },
        "holidayClosedDates": [],
        "customTaxonomy": "NSP_DAEYEON",
        "customTaxonomyValue": "파트너  (대연)",
        "pickupOrderType": "BOTH"
    },
    {
        "mapKey": "hyoigwoa69",
        "id": 23,
        "name": "나이키 서울",
        "address1": "서울 중구 명동",
        "address2": "8길 26",
        "city": "중구",
        "zip": "04536",
        "country": "한국",
        "phone": "02-3789-9534",
        "longitude": 126.9846339,
        "latitude": 37.562571,
        "state": "서울",
        "isShowMap": true,
        "isFulfill": true,
        "available": true,
        "isDefault": false,
        "isReturnDefault": false,
        "isReservationOnly": false,
        "priority": 10100,
        "fulfillmentType": "PHYSICAL_PICKUP_OR_SHIP",
        "additionalAttributes": {
            "영업시간": "일~목 : 10: 30 ~ 21: 30, 금, 토 : 10: 30 ~ 22: 00",
            "주요카테고리": "러닝, 나이키 스포츠웨어, 남성 트레이닝, 여성 트레이닝",
            "storeType": "direct,assist",
            "지번": "서울시 중구 명동2가 52-18 ",
            "OWNER": "3"
        },
        "holidayClosedDates": [],
        "customTaxonomy": "NSO",
        "customTaxonomyValue": "직영 매장",
        "pickupOrderType": "BOTH"
    },
    {
        "mapKey": "hyoigwoa69",
        "id": 26,
        "name": "여의도 IFC몰",
        "address1": "서울특별시 영등포구 국제금융로",
        "address2": "10 253 (여의도동,아이에프씨몰B2층), 나이키",
        "city": "영등포구",
        "zip": "7326",
        "country": "한국",
        "phone": "02-6137-5360",
        "longitude": 126.9253099,
        "latitude": 37.5249989,
        "state": "서울",
        "isShowMap": true,
        "isFulfill": false,
        "available": true,
        "isDefault": false,
        "isReturnDefault": false,
        "isReservationOnly": false,
        "priority": 99999999,
        "fulfillmentType": "PHYSICAL_SHIP",
        "additionalAttributes": {
            "영업시간": "월-일 오전 11 시 ~ 오후 21 시",
            "storeType": "nrc",
            "지번": "서울특별시 영등포구 여의도동 23 IFC몰 B2층"
        },
        "holidayClosedDates": [],
        "customTaxonomy": null,
        "customTaxonomyValue": null,
        "pickupOrderType": "BOTH"
    },
    {
        "mapKey": "hyoigwoa69",
        "id": 59,
        "name": "SNKRS 홍대",
        "address1": "서울 마포구 와우산로",
        "address2": "78 (서교동)",
        "city": "마포구",
        "zip": "04067",
        "country": "한국",
        "phone": "02-333-2094",
        "longitude": 126.9236412,
        "latitude": 37.5514663,
        "state": "서울",
        "isShowMap": true,
        "isFulfill": true,
        "available": true,
        "isDefault": false,
        "isReturnDefault": false,
        "isReservationOnly": false,
        "priority": 2003400,
        "fulfillmentType": "PHYSICAL_PICKUP_OR_SHIP",
        "additionalAttributes": {
            "영업시간": "월~일 : 11: 00 ~ 22: 00",
            "주요카테고리": "나이키 스포츠웨어",
            "storeType": "assist",
            "지번": "서울 마포구 서교동 361-19번지",
            "OWNER": "4"
        },
        "holidayClosedDates": [],
        "customTaxonomy": "NSP_DAEYEON",
        "customTaxonomyValue": "파트너  (대연)",
        "pickupOrderType": "BOTH"
    },
    {
        "mapKey": "hyoigwoa69",
        "id": 65,
        "name": "분당 서현점",
        "address1": "경기 성남시 분당구 분당로53번길",
        "address2": "9 (서현동 269-6)",
        "city": "성남시 분당구",
        "zip": "13591",
        "country": "한국",
        "phone": "031-701-8753",
        "longitude": 127.1213473,
        "latitude": 37.3838975,
        "state": "경기",
        "isShowMap": true,
        "isFulfill": true,
        "available": true,
        "isDefault": false,
        "isReturnDefault": false,
        "isReservationOnly": false,
        "priority": 2005800,
        "fulfillmentType": "PHYSICAL_PICKUP_OR_SHIP",
        "additionalAttributes": {
            "영업시간": "월~일 : 10: 30 ~ 21: 30",
            "지번": "경기 성남시 분당구 서현동 269-6번지",
            "OWNER": "5",
            "storeType": "assist"
        },
        "holidayClosedDates": [],
        "customTaxonomy": "NSP_WINWIN",
        "customTaxonomyValue": "파트너 (윈윈)",
        "pickupOrderType": "BOTH"
    },
    {
        "mapKey": "hyoigwoa69",
        "id": 76,
        "name": "용인",
        "address1": "경기 용인시 처인구 금령로",
        "address2": "75 (김량장동 254-87)",
        "city": "용인시 처인구",
        "zip": "17052",
        "country": "한국",
        "phone": "031-322-8753",
        "longitude": 127.20467,
        "latitude": 37.235325,
        "state": "경기",
        "isShowMap": true,
        "isFulfill": true,
        "available": true,
        "isDefault": false,
        "isReturnDefault": false,
        "isReservationOnly": false,
        "priority": 2005000,
        "fulfillmentType": "PHYSICAL_PICKUP",
        "additionalAttributes": {
            "영업시간": "월~일 : 10: 30 ~ 21: 30",
            "지번": "경기 용인시 처인구 김량장동 254-87번지",
            "OWNER": "5",
            "storeType": "assist"
        },
        "holidayClosedDates": [],
        "customTaxonomy": "NSP_WINWIN",
        "customTaxonomyValue": "파트너 (윈윈)",
        "pickupOrderType": "BOTH"
    },
    {
        "mapKey": "hyoigwoa69",
        "id": 82,
        "name": "진주로데오",
        "address1": "경남 진주시 진주대로",
        "address2": "1069 (대안동)",
        "city": "진주시",
        "zip": "52684",
        "country": "한국",
        "phone": "055-742-0787",
        "longitude": 128.0834063,
        "latitude": 35.1949954,
        "state": "경남",
        "isShowMap": true,
        "isFulfill": true,
        "available": true,
        "isDefault": false,
        "isReturnDefault": false,
        "isReservationOnly": false,
        "priority": 2003100,
        "fulfillmentType": "PHYSICAL_PICKUP",
        "additionalAttributes": {
            "영업시간": "월~일 : 10: 30 ~ 21: 30",
            "지번": "경남 진주시 진주대로 1069",
            "OWNER": "5",
            "storeType": "assist"
        },
        "holidayClosedDates": [],
        "customTaxonomy": "NSP_WINWIN",
        "customTaxonomyValue": "파트너 (윈윈)",
        "pickupOrderType": "BOTH"
    },
    {
        "mapKey": "hyoigwoa69",
        "id": 144,
        "name": "강원 원주 타운",
        "address1": "강원도 원주시 원일로",
        "address2": "70 (중앙동)",
        "city": "원주시",
        "zip": "26428",
        "country": "한국",
        "phone": "033-744-2094",
        "longitude": 127.95139,
        "latitude": 37.34809,
        "state": "강원도",
        "isShowMap": true,
        "isFulfill": true,
        "available": true,
        "isDefault": false,
        "isReturnDefault": false,
        "isReservationOnly": false,
        "priority": 2001800,
        "fulfillmentType": "PHYSICAL_PICKUP",
        "additionalAttributes": {
            "영업시간": "월~일 : 10: 30 ~ 21: 30",
            "지번": "강원 원주시 중앙동 126-9번지",
            "OWNER": "4",
            "storeType": "assist"
        },
        "holidayClosedDates": [],
        "customTaxonomy": "NSP_DAEYEON",
        "customTaxonomyValue": "파트너  (대연)",
        "pickupOrderType": "BOTH"
    },
    {
        "mapKey": "hyoigwoa69",
        "id": 156,
        "name": "안산고잔",
        "address1": "경기 안산시 상록구 삼리로",
        "address2": "58 (사동)",
        "city": "안산시 상록구",
        "zip": "15499",
        "country": "한국",
        "phone": "031-419-8244",
        "longitude": 126.845955,
        "latitude": 37.304943,
        "state": "경기",
        "isShowMap": true,
        "isFulfill": true,
        "available": true,
        "isDefault": false,
        "isReturnDefault": false,
        "isReservationOnly": false,
        "priority": 2004200,
        "fulfillmentType": "PHYSICAL_PICKUP",
        "additionalAttributes": {
            "영업시간": "월~일 : 10: 30 ~ 21: 30",
            "지번": "경기도 안산시 상록구 삼리로 58 (사동)",
            "OWNER": "5",
            "storeType": "assist"
        },
        "holidayClosedDates": [],
        "customTaxonomy": "NSP_WINWIN",
        "customTaxonomyValue": "파트너 (윈윈)",
        "pickupOrderType": "BOTH"
    },
    {
        "mapKey": "hyoigwoa69",
        "id": 159,
        "name": "경기 의정부2점",
        "address1": "경기 의정부시 시민로",
        "address2": "117 (의정부동)",
        "city": "의정부시",
        "zip": "11695",
        "country": "한국",
        "phone": "031-848-7006",
        "longitude": 127.04837,
        "latitude": 37.738735,
        "state": "경기",
        "isShowMap": true,
        "isFulfill": true,
        "available": true,
        "isDefault": false,
        "isReturnDefault": false,
        "isReservationOnly": false,
        "priority": 2006200,
        "fulfillmentType": "PHYSICAL_PICKUP",
        "additionalAttributes": {
            "영업시간": "월~일 : 10: 30 ~ 21: 30",
            "지번": "경기도 의정부시 의정부동 175-10",
            "OWNER": "11",
            "storeType": "assist"
        },
        "holidayClosedDates": [],
        "customTaxonomy": "NSP_DAESAN",
        "customTaxonomyValue": "파트너(대산)",
        "pickupOrderType": "BOTH"
    },
    {
        "mapKey": "hyoigwoa69",
        "id": 167,
        "name": "포천 소흘점",
        "address1": "경기 포천시 소흘읍 윗용상길",
        "address2": "6 (이동교리)",
        "city": "포천시",
        "zip": "11184",
        "country": "한국",
        "phone": "031-543-4550",
        "longitude": 127.13276,
        "latitude": 37.80962,
        "state": "경기",
        "isShowMap": true,
        "isFulfill": true,
        "available": true,
        "isDefault": false,
        "isReturnDefault": false,
        "isReservationOnly": false,
        "priority": 2000100,
        "fulfillmentType": "PHYSICAL_PICKUP",
        "additionalAttributes": {
            "영업시간": "월~일 : 10: 00 ~ 21: 00",
            "지번": "경기 포천시 소흘읍 이동교리 271-6번지",
            "OWNER": "11",
            "storeType": "assist"
        },
        "holidayClosedDates": [],
        "customTaxonomy": "NSP_DAESAN",
        "customTaxonomyValue": "파트너(대산)",
        "pickupOrderType": "BOTH"
    },
    {
        "mapKey": "hyoigwoa69",
        "id": 169,
        "name": "롯데백화점 안산점",
        "address1": "경기도 안산시 단원구 고잔",
        "address2": "1길 12 (고잔동 롯데백화점) 5층",
        "city": "안산시 단원구",
        "zip": "15360",
        "country": "한국",
        "phone": "031-412-7939",
        "longitude": 126.834483,
        "latitude": 37.318052,
        "state": "경기",
        "isShowMap": true,
        "isFulfill": true,
        "available": true,
        "isDefault": false,
        "isReturnDefault": false,
        "isReservationOnly": false,
        "priority": 3001700,
        "fulfillmentType": "PHYSICAL_PICKUP",
        "additionalAttributes": {
            "영업시간": "월~금 : 10: 30 ~ 20: 00 / 토, 일 : 10: 30 ~ 20: 30",
            "storeType": "assist",
            "LANDROAD": "55",
            "지번": "경기도 안산시 단원구 고잔동 536-2 롯데백화점) 5층",
            "OWNER": "5"
        },
        "holidayClosedDates": [
            "2020-01-24",
            "2020-01-25",
            "2020-09-30",
            "2020-10-01"
        ],
        "customTaxonomy": "NSP_WINWIN",
        "customTaxonomyValue": "파트너 (윈윈)",
        "pickupOrderType": "BOTH"
    },
    {
        "mapKey": "hyoigwoa69",
        "id": 171,
        "name": "교하 직영 상설점",
        "address1": "경기도 파주시 회동길",
        "address2": "390 롯데프리미엄아울렛",
        "city": "파주시",
        "zip": "10881",
        "country": "한국",
        "phone": "031-960-2900",
        "longitude": 126.6937928,
        "latitude": 37.717805,
        "state": "경기",
        "isShowMap": true,
        "isFulfill": true,
        "available": true,
        "isDefault": false,
        "isReturnDefault": false,
        "isReservationOnly": false,
        "priority": 100100,
        "fulfillmentType": "PHYSICAL_SHIP",
        "additionalAttributes": {
            "영업시간": "월~일 10: 30~21: 00",
            "주요카테고리": "스케이트보드, 러닝, 농구, 축구, 남성 트레이닝, 여성 트레이닝,  나이키 스포츠웨어, 키즈",
            "storeType": "direct,nfs",
            "LANDROAD": "17",
            "지번": "경기도 파주시 문발동 645 롯데프리미엄아울렛",
            "OWNER": "13"
        },
        "holidayClosedDates": [],
        "customTaxonomy": "NFS",
        "customTaxonomyValue": "직영 상설매장",
        "pickupOrderType": "BOTH"
    },
    {
        "mapKey": "hyoigwoa69",
        "id": 194,
        "name": "부산 서면제일점",
        "address1": "부산 부산진구 중앙대로692번길",
        "address2": "31 (부전동)",
        "city": "부산진구",
        "zip": "47295",
        "country": "한국",
        "phone": "051-818-0005",
        "longitude": 129.06093,
        "latitude": 35.15473,
        "state": "부산",
        "isShowMap": true,
        "isFulfill": true,
        "available": true,
        "isDefault": false,
        "isReturnDefault": false,
        "isReservationOnly": false,
        "priority": 2001300,
        "fulfillmentType": "PHYSICAL_PICKUP_OR_SHIP",
        "additionalAttributes": {
            "영업시간": "월~일 : 11: 00 ~ 22: 00",
            "주요카테고리": "농구, 러닝, 나이키 스포츠웨어, 남성 트레이닝, 여성 트레이닝, 키즈",
            "storeType": "nrc,assist",
            "지번": "부산 부산진구 부전동 172-5번지",
            "OWNER": "16"
        },
        "holidayClosedDates": [],
        "customTaxonomy": "NSP_SHOELAND",
        "customTaxonomyValue": "파트너(슈랜드)",
        "pickupOrderType": "BOTH"
    }
]